{"type":"FeatureCollection","features":[{"type":"Feature","geometry":{"type":"Point","coordinates":[-122.425017345697,37.7764970894399]},"properties":{"name":"Parklet at Souvla","type":"Parklet","address":"517 Hayes St"}},{"type":"Feature","geometry":{"type":"Point","coordinates":[-122.505016172821,37.7531247071453]},"properties":{"name":"Parklet at Devil's Teeth Baking Company","type":"Parklet","address":"3876 Noriega St"}},{"type":"Feature","geometry":{"type":"Point","coordinates":[-122.434386260392,37.7889688677795]},"properties":{"name":"Parklet at Pizzeria Due, LLC dba: Delfina","type":"Parklet","address":"2410 California St"}},{"type":"Feature","geometry":{"type":"Point","coordinates":[-122.414288848921,37.7876536417892]},"properties":{"name":"Parklet at Farm: Table","type":"Parklet","address":"754 Post St"}},{"type":"Feature","geometry":{"type":"Point","coordinates":[-122.423049882767,37.7521177180627]},"properties":{"name":"Parklet at Jumpstart Coffee","type":"Parklet","address":"1192 Guerrero St"}},{"type":"Feature","geometry":{"type":"Point","coordinates":[-122.463707816523,37.7773709746424]},"properties":{"name":"Parklet at CINDERELLA BAKERY INC.","type":"Parklet","address":"436 Balboa St"}},{"type":"Feature","geometry":{"type":"Point","coordinates":[-122.504335015934,37.7606488715908]},"properties":{"name":"Parklet at Other Avenues Food Store","type":"Parklet","address":"3930 Judah St"}},{"type":"Feature","geometry":{"type":"Point","coordinates":[-122.505017877219,37.7603268659716]},"properties":{"name":"Parklet at Outerlands Cafe","type":"Parklet","address":"4001 Judah St"}},{"type":"Feature","geometry":{"type":"Point","coordinates":[-122.49580918509,37.7759385201735]},"properties":{"name":"Parklet at SIMPLE PLEASURES CAFÉ","type":"Parklet","address":"3434 Balboa St"}},{"type":"Feature","geometry":{"type":"Point","coordinates":[-122.422708668599,37.7771790954812]},"properties":{"name":"Parklet at Arlequin Cafe","type":"Parklet","address":"384 Hayes St"}},{"type":"Feature","geometry":{"type":"Point","coordinates":[-122.421836042978,37.7662831187987]},"properties":{"name":"Parklet at Samovar Tea Bar","type":"Parklet","address":"411 Valencia St"}},{"type":"Feature","geometry":{"type":"Point","coordinates":[-122.413272000154,37.7710633795325]},"properties":{"name":"Parklet at Butter","type":"Parklet","address":"354 11th St"}},{"type":"Feature","geometry":{"type":"Point","coordinates":[-122.408964001767,37.8003095186895]},"properties":{"name":"Parklet at Tonys Pizza Napoletana","type":"Parklet","address":"1570 Stockton St"}},{"type":"Feature","geometry":{"type":"Point","coordinates":[-122.484683675488,37.7428086566312]},"properties":{"name":"Parklet at Rolling Out, Inc.","type":"Parklet","address":"1722 Taraval St"}},{"type":"Feature","geometry":{"type":"Point","coordinates":[-122.461386441503,37.7832414758767]},"properties":{"name":"Parklet at Cumaica Coffee Co.","type":"Parklet","address":"200 Clement St"}},{"type":"Feature","geometry":{"type":"Point","coordinates":[-122.417143296991,37.7870574789831]},"properties":{"name":"Parklet at Meraki Market","type":"Parklet","address":"927 Post St"}},{"type":"Feature","geometry":{"type":"Point","coordinates":[-122.440745524815,37.7878788215242]},"properties":{"name":"Parklet at b Patisserie","type":"Parklet","address":"2821 California St"}},{"type":"Feature","geometry":{"type":"Point","coordinates":[-122.421767991747,37.7952603590802]},"properties":{"name":"Parklet at Cheese Plus","type":"Parklet","address":"2001 Polk St"}},{"type":"Feature","geometry":{"type":"Point","coordinates":[-122.388869208794,37.7580110840154]},"properties":{"name":"Parklet at Just for You Cafe, Inc.","type":"Parklet","address":"732 22nd St"}},{"type":"Feature","geometry":{"type":"Point","coordinates":[-122.437916704181,37.7764549448782]},"properties":{"name":"Parklet at Four Barrel Coffee LLC","type":"Parklet","address":"736 Divisadero St"}},{"type":"Feature","geometry":{"type":"Point","coordinates":[-122.42056158933,37.7529741974744]},"properties":{"name":"Parklet at Exploratorium","type":"Parklet","address":"1241 Valencia St"}},{"type":"Feature","geometry":{"type":"Point","coordinates":[-122.421794755716,37.7658520331589]},"properties":{"name":"Parklet at Venga Empanadas","type":"Parklet","address":"443 Valencia St"}},{"type":"Feature","geometry":{"type":"Point","coordinates":[-122.428962083807,37.7517046164503]},"properties":{"name":"Parklet at Noe Valley Association","type":"Parklet","address":"3868 24th St"}},{"type":"Feature","geometry":{"type":"Point","coordinates":[-122.421029257284,37.7578585443699]},"properties":{"name":"Parklet at Amandeep Jawa","type":"Parklet","address":"937 Valencia St"}},{"type":"Feature","geometry":{"type":"Point","coordinates":[-122.421342540038,37.7571639251618]},"properties":{"name":"Parklet at Senor Sisig","type":"Parklet","address":"988 Valencia St"}},{"type":"Feature","geometry":{"type":"Point","coordinates":[-122.438042175671,37.7751539634086]},"properties":{"name":"Parklet at SHATARA ARCHITECTURE INC","type":"Parklet","address":"607 Divisadero St"}},{"type":"Feature","geometry":{"type":"Point","coordinates":[-122.421521382065,37.755402196677]},"properties":{"name":"Parklet at Luna Rienne Gallery","type":"Parklet","address":"3318 22nd St"}},{"type":"Feature","geometry":{"type":"Point","coordinates":[-122.438390116922,37.7770969923277]},"properties":{"name":"Parklet at Tsunami Panhandle","type":"Parklet","address":"1300 Fulton St"}},{"type":"Feature","geometry":{"type":"Point","coordinates":[-122.408600637216,37.7763235020516]},"properties":{"name":"Parklet at DFPF Corporation dba Fine Line Construction","type":"Parklet","address":"1122 Folsom St"}},{"type":"Feature","geometry":{"type":"Point","coordinates":[-122.435453430682,37.7981592282155]},"properties":{"name":"Parklet at Rapha Racing, LLC","type":"Parklet","address":"2198 Filbert St"}},{"type":"Feature","geometry":{"type":"Point","coordinates":[-122.420901021385,37.7529506490691]},"properties":{"name":"Parklet at Bruce Tomb","type":"Parklet","address":"1240 Valencia St"}},{"type":"Feature","geometry":{"type":"Point","coordinates":[-122.505213867287,37.760400978588]},"properties":{"name":"Parklet at Trouble Coffee","type":"Parklet","address":"4033 Judah St"}},{"type":"Feature","geometry":{"type":"Point","coordinates":[-122.422032497941,37.7669590833028]},"properties":{"name":"Parklet at Four Barrel Coffee LLC","type":"Parklet","address":"375 Valencia St"}},{"type":"Feature","geometry":{"type":"Point","coordinates":[-122.421332270027,37.758407896245]},"properties":{"name":"Parklet at Smitten Ice Cream","type":"Parklet","address":"904 Valencia St"}},{"type":"Feature","geometry":{"type":"Point","coordinates":[-122.431473682572,37.7515027542727]},"properties":{"name":"Parklet at Noe Valley Association","type":"Parklet","address":"3982 24th St"}},{"type":"Feature","geometry":{"type":"Point","coordinates":[-122.393801287169,37.7781978976207]},"properties":{"name":"Parklet at Cafe Okawari","type":"Parklet","address":"236 Townsend St"}},{"type":"Feature","geometry":{"type":"Point","coordinates":[-122.387931202139,37.7568164762378]},"properties":{"name":"Parklet at Museum of Craft and Design","type":"Parklet","address":"2569 03rd St"}},{"type":"Feature","geometry":{"type":"Point","coordinates":[-122.420763362027,37.7526088597395]},"properties":{"name":"Parklet at ARIZMENDI BAKERY","type":"Parklet","address":"1268 Valencia St"}},{"type":"Feature","geometry":{"type":"Point","coordinates":[-122.447550324237,37.77003851165]},"properties":{"name":"Parklet at HAIGHT STREET MARKET","type":"Parklet","address":"1530 Haight St"}},{"type":"Feature","geometry":{"type":"Point","coordinates":[-122.43340565699,37.7643914840836]},"properties":{"name":"Parklet at SQUAT & GOBBLE CAFÉ - 3600 16th St","type":"Parklet","address":"3600 16th St"}},{"type":"Feature","geometry":{"type":"Point","coordinates":[-122.421286866029,37.7928463851277]},"properties":{"name":"Parklet at THE CREPE HOUSE","type":"Parklet","address":"1755 Polk St"}},{"type":"Feature","geometry":{"type":"Point","coordinates":[-122.423989108697,37.7738602074439]},"properties":{"name":"Parklet at Mercury Cafe","type":"Parklet","address":"201 Octavia St"}},{"type":"Feature","geometry":{"type":"Point","coordinates":[-122.436906435278,37.771527449986]},"properties":{"name":"Parklet at Native Twins Coffee","type":"Parklet","address":"262 Divisadero St"}},{"type":"Feature","geometry":{"type":"Point","coordinates":[-122.405619703902,37.797320588829]},"properties":{"name":"Parklet at Mr. Lucky 0168, LLC DBA: Reveille Coffee Company","type":"Parklet","address":"200 Columbus Ave"}},{"type":"Feature","geometry":{"type":"Point","coordinates":[-122.421234171377,37.7564299736075]},"properties":{"name":"Parklet at Ritual Coffee Roasters","type":"Parklet","address":"1026 Valencia St"}},{"type":"Feature","geometry":{"type":"Point","coordinates":[-122.41382604788,37.739036456725]},"properties":{"name":"Parklet at Nute's","type":"Parklet","address":"903 Cortland Ave"}},{"type":"Feature","geometry":{"type":"Point","coordinates":[-122.421669254993,37.7609733804633]},"properties":{"name":"Parklet at Dandelion Chocolate","type":"Parklet","address":"740 Valencia St"}},{"type":"Feature","geometry":{"type":"Point","coordinates":[-122.408487162809,37.7989481680788]},"properties":{"name":"Parklet at CAFFE' GRECO","type":"Parklet","address":"423 Columbus Ave"}},{"type":"Feature","geometry":{"type":"Point","coordinates":[-122.393988863559,37.778878168157]},"properties":{"name":"Parklet at Little Skillet","type":"Parklet","address":"360 Ritch St"}},{"type":"Feature","geometry":{"type":"Point","coordinates":[-122.395970025754,37.7624920577396]},"properties":{"name":"Parklet at FARLEY'S","type":"Parklet","address":"1315 18th St"}},{"type":"Feature","geometry":{"type":"Point","coordinates":[-122.396129317301,37.7805792565267]},"properties":{"name":"Parklet at Darwin Cafe","type":"Parklet","address":"212 Ritch St"}},{"type":"Feature","geometry":{"type":"Point","coordinates":[-122.438112334241,37.7755458666895]},"properties":{"name":"Parklet at Fool's Errand","type":"Parklet","address":"639 Divisadero St"}},{"type":"Feature","geometry":{"type":"Point","coordinates":[-122.421066978547,37.7546846512283]},"properties":{"name":"Parklet at The Crepe House 3","type":"Parklet","address":"1132 Valencia St"}},{"type":"Feature","geometry":{"type":"Point","coordinates":[-122.39982015,37.7955308]},"properties":{"name":"Maritime Plaza","type":"Park","address":"285 Washington Street","description":"Park subtype: Civic Plaza or Square"}},{"type":"Feature","geometry":{"type":"Point","coordinates":[-122.49239745,37.7219234]},"properties":{"name":"Lake Merced Park","type":"Park","address":"Lake Merced Boulevard","description":"Park subtype: Regional Park"}},{"type":"Feature","geometry":{"type":"Point","coordinates":[-122.41742016,37.79642235]},"properties":{"name":"Broadway Tunnel West Mini Park","type":"Park","address":"1201 Broadway","description":"Park subtype: Mini Park"}},{"type":"Feature","geometry":{"type":"Point","coordinates":[-122.45465821,37.73906281]},"properties":{"name":"Mt. Davidson Park","type":"Park","address":"Myra Way","description":"Park subtype: Regional Park"}},{"type":"Feature","geometry":{"type":"Point","coordinates":[-122.40750049,37.78793123]},"properties":{"name":"Union Square","type":"Park","address":"Post & Stockton","description":"Park subtype: Civic Plaza or Square"}},{"type":"Feature","geometry":{"type":"Point","coordinates":[-122.41204637,37.74706105]},"properties":{"name":"Precita Park","type":"Park","address":"3200 Folsom Street","description":"Park subtype: Neighborhood Park or Playground"}},{"type":"Feature","geometry":{"type":"Point","coordinates":[-122.4190781,37.71808411]},"properties":{"name":"John McLaren Park","type":"Park","address":"Mansell & Visitacion","description":"Park subtype: Regional Park"}},{"type":"Feature","geometry":{"type":"Point","coordinates":[-122.40880709,37.74607639]},"properties":{"name":"Mullen & Peralta Mini Park","type":"Park","address":"Mullen & Peralta","description":"Park subtype: Mini Park"}},{"type":"Feature","geometry":{"type":"Point","coordinates":[-122.4071629,37.74504192]},"properties":{"name":"Dogpatch - Miller Memorial Garden","type":"Park","address":"Brewster & Rutledge Streets","description":"Park subtype: Community Garden"}},{"type":"Feature","geometry":{"type":"Point","coordinates":[-122.4139202,37.72247455]},"properties":{"name":"Louis Sutter Playground","type":"Park","address":"Wayland & University","description":"Park subtype: Neighborhood Park or Playground"}},{"type":"Feature","geometry":{"type":"Point","coordinates":[-122.44544775,37.72044197]},"properties":{"name":"Geneva Community Garden","type":"Park","address":"600 Geneva & Delano","description":"Park subtype: Mini Park"}},{"type":"Feature","geometry":{"type":"Point","coordinates":[-122.43431342,37.73880227]},"properties":{"name":"Diamond & Farnum Open Space","type":"Park","address":"Diamond & Farnum","description":"Park subtype: Neighborhood Park or Playground"}},{"type":"Feature","geometry":{"type":"Point","coordinates":[-122.44485143,37.79733829]},"properties":{"name":"Cow Hollow Playground","type":"Park","address":"1 Miley St","description":"Park subtype: Neighborhood Park or Playground"}},{"type":"Feature","geometry":{"type":"Point","coordinates":[-122.41812033,37.74624354]},"properties":{"name":"Coso & Precita Mini Park","type":"Park","address":"Coso & Precita","description":"Park subtype: Mini Park"}},{"type":"Feature","geometry":{"type":"Point","coordinates":[-122.41658008,37.71347574]},"properties":{"name":"Herz Playground","type":"Park","address":"Hahn & Visitacion","description":"Park subtype: Neighborhood Park or Playground"}},{"type":"Feature","geometry":{"type":"Point","coordinates":[-122.44554052,37.76330762]},"properties":{"name":"Mt. Olympus","type":"Park","address":"Upper Terrace","description":"Park subtype: Neighborhood Park or Playground"}},{"type":"Feature","geometry":{"type":"Point","coordinates":[-122.45977354,37.74203435]},"properties":{"name":"Edgehill Mountain","type":"Park","address":"Edgehill & Garcia","description":"Park subtype: Neighborhood Park or Playground"}},{"type":"Feature","geometry":{"type":"Point","coordinates":[-122.4280993,37.77361247]},"properties":{"name":"Page Street Community Garden","type":"Park","address":"438 Page Street","description":"Park subtype: Community Garden"}},{"type":"Feature","geometry":{"type":"Point","coordinates":[-122.45397275,37.79131307]},"properties":{"name":"Julius Kahn Playground","type":"Park","address":"West Pacific Avenue & Spruce Street","description":"Park subtype: Neighborhood Park or Playground"}},{"type":"Feature","geometry":{"type":"Point","coordinates":[-122.50817528,37.74928062]},"properties":{"name":"Lower Great Highway","type":"Park","address":"Great Highway & Noriega","description":"Park subtype: Parkway"}},{"type":"Feature","geometry":{"type":"Point","coordinates":[-122.44848853,37.80300312]},"properties":{"name":"Palace of Fine Arts","type":"Park","address":"3601 Lyon Street & Marina Blvd","description":"Park subtype: Civic Plaza or Square"}},{"type":"Feature","geometry":{"type":"Point","coordinates":[-122.44523214,37.74031131]},"properties":{"name":"O'Shaughnessy Hollow","type":"Park","address":"O'Shaughnessy Blvd","description":"Park subtype: Neighborhood Park or Playground"}},{"type":"Feature","geometry":{"type":"Point","coordinates":[-122.46257271,37.71809145]},"properties":{"name":"Lakeview & Ashton Mini Park","type":"Park","address":"Ashton & Lakeview Streets","description":"Park subtype: Mini Park"}},{"type":"Feature","geometry":{"type":"Point","coordinates":[-122.4469545,37.75234399]},"properties":{"name":"Twin Peaks","type":"Park","address":"Twin Peaks Boulevard","description":"Park subtype: Regional Park"}},{"type":"Feature","geometry":{"type":"Point","coordinates":[-122.4535394,37.76038561]},"properties":{"name":"Interior Greenbelt","type":"Park","address":"Belmont & Woodland","description":"Park subtype: Neighborhood Park or Playground"}},{"type":"Feature","geometry":{"type":"Point","coordinates":[-122.4845337,37.78483899]},"properties":{"name":"Rochambeau Playground","type":"Park","address":"238 - 25th Avenue","description":"Park subtype: Neighborhood Park or Playground"}},{"type":"Feature","geometry":{"type":"Point","coordinates":[-122.42109721,37.77903623]},"properties":{"name":"War Memorial & Opera House","type":"Park","address":"301 Van Ness Avenue","description":"Park subtype: War Memorial & Performing Arts Center"}},{"type":"Feature","geometry":{"type":"Point","coordinates":[-122.41624834,37.77937914]},"properties":{"name":"San Francisco Main Library","type":"Park","address":"100 Larkin Street","description":"Park subtype: SF Public Library property"}},{"type":"Feature","geometry":{"type":"Point","coordinates":[-122.4448487,37.78892479]},"properties":{"name":"Presidio Library Mini Park","type":"Park","address":"3150 Sacramento Street","description":"Park subtype: SF Public Library property"}},{"type":"Feature","geometry":{"type":"Point","coordinates":[-122.4431825,37.74784303]},"properties":{"name":"Clipper Terrace Community Garden","type":"Park","address":"855 Clipper Terrace","description":"Park subtype: Community Garden"}},{"type":"Feature","geometry":{"type":"Point","coordinates":[-122.41962236,37.77870482]},"properties":{"name":"City Hall","type":"Park","address":"1 Carlton B. Goodlett Place","description":"Park subtype: Real Estate/Administrative Services property"}},{"type":"Feature","geometry":{"type":"Point","coordinates":[-122.4142593,37.74313475]},"properties":{"name":"Bernal Heights Park","type":"Park","address":"Bernal Heights Boulevard","description":"Park subtype: Neighborhood Park or Playground"}},{"type":"Feature","geometry":{"type":"Point","coordinates":[-122.41017264,37.79043353]},"properties":{"name":"Hooker Alley Community Garden","type":"Park","address":"Hooker Alley","description":"Park subtype: Community Garden"}},{"type":"Feature","geometry":{"type":"Point","coordinates":[-122.4066037,37.74528401]},"properties":{"name":"Wolfe Lane Community Garden","type":"Park","address":"90 Rutledge Street","description":"Park subtype: Community Garden"}},{"type":"Feature","geometry":{"type":"Point","coordinates":[-122.47233268,37.75503966]},"properties":{"name":"Grand View Open Space","type":"Park","address":"15th Avenue/Noriega (Sheldon)","description":"Park subtype: Neighborhood Park or Playground"}},{"type":"Feature","geometry":{"type":"Point","coordinates":[-122.40981868,37.77725504]},"properties":{"name":"Howard & Langton Mini Park","type":"Park","address":"Howard & Langton","description":"Park subtype: Community Garden"}},{"type":"Feature","geometry":{"type":"Point","coordinates":[-122.45532293,37.70861819]},"properties":{"name":"Lessing & Sears Mini Park","type":"Park","address":"Sickles & Sears","description":"Park subtype: Mini Park"}},{"type":"Feature","geometry":{"type":"Point","coordinates":[-122.43756556,37.78421783]},"properties":{"name":"Western Addition Branch Library","type":"Park","address":"1550 Scott Street","description":"Park subtype: SF Public Library property"}},{"type":"Feature","geometry":{"type":"Point","coordinates":[-122.50380858,37.73158917]},"properties":{"name":"San Francisco Zoo","type":"Park","address":"1 Zoo Road","description":"Park subtype: Zoological Garden"}},{"type":"Feature","geometry":{"type":"Point","coordinates":[-122.42126377,37.80796045]},"properties":{"name":"Rowing Club - Dolphin Club","type":"Park","address":"500 Jefferson Street","description":"Park subtype: Concession"}},{"type":"Feature","geometry":{"type":"Point","coordinates":[-122.41203412,37.73580357]},"properties":{"name":"Ogden Terrace Community Garden","type":"Park","address":"700 Ogden Avenue","description":"Park subtype: Community Garden"}},{"type":"Feature","geometry":{"type":"Point","coordinates":[-122.42577666,37.73647065]},"properties":{"name":"Park Street Garden","type":"Park","address":"Park & San Jose","description":"Park subtype: Community Garden"}},{"type":"Feature","geometry":{"type":"Point","coordinates":[-122.43995904,37.73956698]},"properties":{"name":"Berkeley Way Open Space","type":"Park","address":"298 Berkeley Way","description":"Park subtype: Neighborhood Park or Playground"}},{"type":"Feature","geometry":{"type":"Point","coordinates":[-122.44066357,37.7414226]},"properties":{"name":"Crags Court Garden","type":"Park","address":"Crags Court","description":"Park subtype: Community Garden"}},{"type":"Feature","geometry":{"type":"Point","coordinates":[-122.47497421,37.62395214]},"properties":{"name":"Sharp Park","type":"Park","address":"Route 1 & Sharp Park Rd","description":"Park subtype: Regional Park"}},{"type":"Feature","geometry":{"type":"Point","coordinates":[-122.47448574,37.72661159]},"properties":{"name":"Merced Branch Library","type":"Park","address":"155 Winston Drive","description":"Park subtype: SF Public Library property"}},{"type":"Feature","geometry":{"type":"Point","coordinates":[-122.4408417,37.7327328]},"properties":{"name":"Joost & Baden Mini Park","type":"Park","address":"Joost & West of Baden","description":"Park subtype: Mini Park"}},{"type":"Feature","geometry":{"type":"Point","coordinates":[-122.37196566,37.73316598]},"properties":{"name":"India Basin - Shoreline Park","type":"Park","address":"Evans & Army","description":"Park subtype: Neighborhood Park or Playground"}},{"type":"Feature","geometry":{"type":"Point","coordinates":[-122.41994011,37.73720956]},"properties":{"name":"Holly Park","type":"Park","address":"Holly Park Circle","description":"Park subtype: Neighborhood Park or Playground"}},{"type":"Feature","geometry":{"type":"Point","coordinates":[-122.46940771,37.74998588]},"properties":{"name":"Golden Gate Heights Park","type":"Park","address":"12th Ave (off Pacheco) & Rockridge","description":"Park subtype: Neighborhood Park or Playground"}},{"type":"Feature","geometry":{"type":"Point","coordinates":[-122.43196134,37.76400868]},"properties":{"name":"Eureka Valley Branch Library","type":"Park","address":"3555 Sixteenth Street","description":"Park subtype: SF Public Library property"}},{"type":"Feature","geometry":{"type":"Point","coordinates":[-122.44266629,37.74020594]},"properties":{"name":"Glen Canyon Park","type":"Park","address":"Elk Street & O'Shaughnessy Blvd","description":"Park subtype: Regional Park"}},{"type":"Feature","geometry":{"type":"Point","coordinates":[-119.85076005,37.88160218]},"properties":{"name":"Camp Mather","type":"Park","address":"32560 Mather Road","description":"Park subtype: Family Camp"}},{"type":"Feature","geometry":{"type":"Point","coordinates":[-122.43319872,37.74140788]},"properties":{"name":"Billy Goat Hill","type":"Park","address":"30th Street & Castro","description":"Park subtype: Neighborhood Park or Playground"}},{"type":"Feature","geometry":{"type":"Point","coordinates":[-122.49831499,37.78423976]},"properties":{"name":"Lincoln Park","type":"Park","address":"34th Avenue & Clement","description":"Park subtype: Regional Park"}},{"type":"Feature","geometry":{"type":"Point","coordinates":[-122.5110395,37.77591285]},"properties":{"name":"Balboa Natural Area","type":"Park","address":"N.E. Balboa & Great Highway","description":"Park subtype: Neighborhood Park or Playground"}},{"type":"Feature","geometry":{"type":"Point","coordinates":[-122.39250136,37.71517987]},"properties":{"name":"Bay View Park","type":"Park","address":"LeConte Avenue","description":"Park subtype: Regional Park"}},{"type":"Feature","geometry":{"type":"Point","coordinates":[-122.42097959,37.74002229]},"properties":{"name":"Good Prospect Community Garden","type":"Park","address":"100 Cortland Avenue","description":"Park subtype: Community Garden"}},{"type":"Feature","geometry":{"type":"Point","coordinates":[-122.46873755,37.74658626]},"properties":{"name":"Hawk Hill","type":"Park","address":"14th Avenue/Rivera & San Marcos","description":"Park subtype: Neighborhood Park or Playground"}},{"type":"Feature","geometry":{"type":"Point","coordinates":[-122.41759807,37.77948071]},"properties":{"name":"Joseph L. Alioto Performing Arts Piazza","type":"Park","address":"Grove & Larkin Streets","description":"Park subtype: Civic Plaza or Square"}},{"type":"Feature","geometry":{"type":"Point","coordinates":[-122.39477178,37.7949189]},"properties":{"name":"Embarcadero Plaza","type":"Park","address":"Clay & Embarcadero","description":"Park subtype: Civic Plaza or Square"}},{"type":"Feature","geometry":{"type":"Point","coordinates":[-122.44166149,37.75824053]},"properties":{"name":"Kite Hill","type":"Park","address":"Yukon & 19th Street","description":"Park subtype: Neighborhood Park or Playground"}},{"type":"Feature","geometry":{"type":"Point","coordinates":[-122.40468353,37.75915869]},"properties":{"name":"McKinley Square","type":"Park","address":"20th Street & Vermont","description":"Park subtype: Neighborhood Park or Playground"}},{"type":"Feature","geometry":{"type":"Point","coordinates":[-122.45544809,37.75170969]},"properties":{"name":"Midtown Terrace Playground","type":"Park","address":"Clarendon & Olympia Way","description":"Park subtype: Neighborhood Park or Playground"}},{"type":"Feature","geometry":{"type":"Point","coordinates":[-122.43341579,37.7649392]},"properties":{"name":"Noe & Beaver Mini Park","type":"Park","address":"Noe & Beaver","description":"Park subtype: Community Garden"}},{"type":"Feature","geometry":{"type":"Point","coordinates":[-122.47294519,37.78537998]},"properties":{"name":"Park Presidio Blvd","type":"Park","address":"Park Presidio Boulevard","description":"Park subtype: Parkway"}},{"type":"Feature","geometry":{"type":"Point","coordinates":[-122.39692607,37.75613642]},"properties":{"name":"Potrero Hill Rec Center","type":"Park","address":"801 Arkansas Street","description":"Park subtype: Neighborhood Park or Playground"}},{"type":"Feature","geometry":{"type":"Point","coordinates":[-122.39395223,37.78157953]},"properties":{"name":"South Park","type":"Park","address":"64 South Park Avenue","description":"Park subtype: Neighborhood Park or Playground"}},{"type":"Feature","geometry":{"type":"Point","coordinates":[-122.40857387,37.753044]},"properties":{"name":"24th & York Mini Park","type":"Park","address":"24th & York Streets","description":"Park subtype: Mini Park"}},{"type":"Feature","geometry":{"type":"Point","coordinates":[-122.43467284,37.77634189]},"properties":{"name":"Alamo Square","type":"Park","address":"Hayes & Steiner","description":"Park subtype: Neighborhood Park or Playground"}},{"type":"Feature","geometry":{"type":"Point","coordinates":[-122.44664544,37.70981836]},"properties":{"name":"Alice Chalmers Playground","type":"Park","address":"670 Brunswick & Lowell Roemer","description":"Park subtype: Neighborhood Park or Playground"}},{"type":"Feature","geometry":{"type":"Point","coordinates":[-122.42008199,37.80145831]},"properties":{"name":"Alice Marble Tennis Courts","type":"Park","address":"Greenwich & Hyde","description":"Park subtype: Neighborhood Park or Playground"}},{"type":"Feature","geometry":{"type":"Point","coordinates":[-122.46656294,37.72852259]},"properties":{"name":"Aptos Playground","type":"Park","address":"Aptos & Ocean Avenue","description":"Park subtype: Neighborhood Park or Playground"}},{"type":"Feature","geometry":{"type":"Point","coordinates":[-122.47769972,37.77941499]},"properties":{"name":"Argonne Playground","type":"Park","address":"18th Avenue & Geary Boulevard","description":"Park subtype: Neighborhood Park or Playground"}},{"type":"Feature","geometry":{"type":"Point","coordinates":[-122.39729655,37.75739976]},"properties":{"name":"Connecticut Friendship Garden","type":"Park","address":"22nd Street/Connecticut","description":"Park subtype: Community Garden"}},{"type":"Feature","geometry":{"type":"Point","coordinates":[-122.39763954,37.75735856]},"properties":{"name":"Arkansas Friendship Garden","type":"Park","address":"22nd Street/Arkansas","description":"Park subtype: Community Garden"}},{"type":"Feature","geometry":{"type":"Point","coordinates":[-122.3966542,37.75739557]},"properties":{"name":"Potrero Hill Mini Park","type":"Park","address":"22nd Street & Connecticut","description":"Park subtype: Mini Park"}},{"type":"Feature","geometry":{"type":"Point","coordinates":[-122.42637617,37.73704128]},"properties":{"name":"Arlington Community Garden","type":"Park","address":"Arlington & Richland","description":"Park subtype: Community Garden"}},{"type":"Feature","geometry":{"type":"Point","coordinates":[-122.44461194,37.72495468]},"properties":{"name":"Balboa Park","type":"Park","address":"Ocean & San Jose Avenues","description":"Park subtype: Neighborhood Park or Playground"}},{"type":"Feature","geometry":{"type":"Point","coordinates":[-122.39328663,37.72593723]},"properties":{"name":"Bay View Playground","type":"Park","address":"3rd Street & Armstrong","description":"Park subtype: Neighborhood Park or Playground"}},{"type":"Feature","geometry":{"type":"Point","coordinates":[-122.43859838,37.78240439]},"properties":{"name":"Beideman & O'Farrell Mini Park","type":"Park","address":"O'Farrell & Beideman","description":"Park subtype: Mini Park"}},{"type":"Feature","geometry":{"type":"Point","coordinates":[-122.41616224,37.73844673]},"properties":{"name":"Bernal Heights Rec Center","type":"Park","address":"500 Moultrie","description":"Park subtype: Neighborhood Park or Playground"}},{"type":"Feature","geometry":{"type":"Point","coordinates":[-122.41612073,37.73884981]},"properties":{"name":"Bernal Heights Branch Library","type":"Park","address":"500 Cortland Street","description":"Park subtype: SF Public Library property"}},{"type":"Feature","geometry":{"type":"Point","coordinates":[-122.49870037,37.77286734]},"properties":{"name":"Cabrillo Playground","type":"Park","address":"858 - 38th Avenue","description":"Park subtype: Neighborhood Park or Playground"}},{"type":"Feature","geometry":{"type":"Point","coordinates":[-122.4329453,37.7303435]},"properties":{"name":"Cayuga & Lamartine Mini Park","type":"Park","address":"Cayuga & Lamartine Streets","description":"Park subtype: Mini Park"}},{"type":"Feature","geometry":{"type":"Point","coordinates":[-122.4121675,37.79216117]},"properties":{"name":"Collis P. Huntington Park","type":"Park","address":"California & Taylor Streets","description":"Park subtype: Civic Plaza or Square"}},{"type":"Feature","geometry":{"type":"Point","coordinates":[-122.43944608,37.73391332]},"properties":{"name":"Dorothy Erskine Park","type":"Park","address":"Martha & Baden","description":"Park subtype: Neighborhood Park or Playground"}},{"type":"Feature","geometry":{"type":"Point","coordinates":[-122.43339588,37.74596715]},"properties":{"name":"Duncan & Castro Open Space","type":"Park","address":"Duncan & Castro","description":"Park subtype: Neighborhood Park or Playground"}},{"type":"Feature","geometry":{"type":"Point","coordinates":[-122.43178169,37.73808708]},"properties":{"name":"Everson & Digby Lots","type":"Park","address":"61 Everson Street","description":"Park subtype: Neighborhood Park or Playground"}},{"type":"Feature","geometry":{"type":"Point","coordinates":[-122.42911483,37.73850305]},"properties":{"name":"Fairmont Plaza","type":"Park","address":"Miquel & Bemis Street","description":"Park subtype: Neighborhood Park or Playground"}},{"type":"Feature","geometry":{"type":"Point","coordinates":[-122.38973011,37.73473101]},"properties":{"name":"Joseph Lee Rec Center","type":"Park","address":"1395 Mendell Street","description":"Park subtype: Neighborhood Park or Playground"}},{"type":"Feature","geometry":{"type":"Point","coordinates":[-122.45757529,37.7157639]},"properties":{"name":"Minnie and Lovie Rec Center","type":"Park","address":"650 Capitol","description":"Park subtype: Neighborhood Park or Playground"}},{"type":"Feature","geometry":{"type":"Point","coordinates":[-122.44117884,37.80795776]},"properties":{"name":"Yacht Harbor and Marina Green","type":"Park","address":"Marina Boulevard","description":"Park subtype: Regional Park"}},{"type":"Feature","geometry":{"type":"Point","coordinates":[-122.41032497,37.7958546]},"properties":{"name":"Woh Hei Yuen","type":"Park","address":"922 Jackson Street","description":"Park subtype: Neighborhood Park or Playground"}},{"type":"Feature","geometry":{"type":"Point","coordinates":[-122.4071756,37.79357607]},"properties":{"name":"Willie Woo Woo Wong Playground","type":"Park","address":"Sacramento Street & Waverly","description":"Park subtype: Neighborhood Park or Playground"}},{"type":"Feature","geometry":{"type":"Point","coordinates":[-122.4980811,37.7490211]},"properties":{"name":"West Sunset Playground","type":"Park","address":"3223 Ortega Street & 39th Avenue","description":"Park subtype: Neighborhood Park or Playground"}},{"type":"Feature","geometry":{"type":"Point","coordinates":[-122.41068134,37.80042952]},"properties":{"name":"Washington Square","type":"Park","address":"Filbert & Stockton","description":"Park subtype: Civic Plaza or Square"}},{"type":"Feature","geometry":{"type":"Point","coordinates":[-122.41739732,37.793996]},"properties":{"name":"Washington & Hyde Mini Park","type":"Park","address":"Washington & Hyde","description":"Park subtype: Mini Park"}},{"type":"Feature","geometry":{"type":"Point","coordinates":[-122.43437058,37.7405824]},"properties":{"name":"Walter Haas Playground","type":"Park","address":"Addison & Farnum","description":"Park subtype: Neighborhood Park or Playground"}},{"type":"Feature","geometry":{"type":"Point","coordinates":[-122.40906,37.71239724]},"properties":{"name":"Visitacion Valley Playground","type":"Park","address":"251 Leland Street","description":"Park subtype: Neighborhood Park or Playground"}},{"type":"Feature","geometry":{"type":"Point","coordinates":[-122.40596612,37.77700397]},"properties":{"name":"Victoria Manalo Draves Park","type":"Park","address":"Folsom & Sherman Streets","description":"Park subtype: Neighborhood Park or Playground"}},{"type":"Feature","geometry":{"type":"Point","coordinates":[-122.40602369,37.7625144]},"properties":{"name":"Utah & 18th Mini Park","type":"Park","address":"18th Street & Utah","description":"Park subtype: Mini Park"}},{"type":"Feature","geometry":{"type":"Point","coordinates":[-122.42783002,37.74243372]},"properties":{"name":"Upper Noe Rec Center","type":"Park","address":"Day & Sanchez Streets","description":"Park subtype: Neighborhood Park or Playground"}},{"type":"Feature","geometry":{"type":"Point","coordinates":[-122.41593984,37.78272703]},"properties":{"name":"Turk & Hyde Mini Park","type":"Park","address":"Hyde & Vallejo","description":"Park subtype: Mini Park"}},{"type":"Feature","geometry":{"type":"Point","coordinates":[-122.43615381,37.74170728]},"properties":{"name":"Topaz Open Space","type":"Park","address":"Diamond Heights","description":"Park subtype: Neighborhood Park or Playground"}},{"type":"Feature","geometry":{"type":"Point","coordinates":[-122.41539894,37.78480474]},"properties":{"name":"Tenderloin Recreation Center","type":"Park","address":"570 Ellis Street","description":"Park subtype: Neighborhood Park or Playground"}},{"type":"Feature","geometry":{"type":"Point","coordinates":[-122.44767002,37.75993746]},"properties":{"name":"Tank Hill","type":"Park","address":"Clarendon & Twin Peaks","description":"Park subtype: Neighborhood Park or Playground"}},{"type":"Feature","geometry":{"type":"Point","coordinates":[-122.48684699,37.75658876]},"properties":{"name":"Sunset Rec Center","type":"Park","address":"2201 Lawton Street","description":"Park subtype: Neighborhood Park or Playground"}},{"type":"Feature","geometry":{"type":"Point","coordinates":[-122.44076296,37.73192078]},"properties":{"name":"Sunnyside Conservatory","type":"Park","address":"Monterey & Baden","description":"Park subtype: Mini Park"}},{"type":"Feature","geometry":{"type":"Point","coordinates":[-122.43785127,37.76379139]},"properties":{"name":"States Street Playground","type":"Park","address":"86 States Street","description":"Park subtype: Neighborhood Park or Playground"}},{"type":"Feature","geometry":{"type":"Point","coordinates":[-122.40520442,37.79200073]},"properties":{"name":"St. Mary's Square","type":"Park","address":"California Street & Grant Street","description":"Park subtype: Civic Plaza or Square"}},{"type":"Feature","geometry":{"type":"Point","coordinates":[-122.4206582,37.7336741]},"properties":{"name":"St. Mary's Rec Center","type":"Park","address":"Murray & Justin Drive","description":"Park subtype: Neighborhood Park or Playground"}},{"type":"Feature","geometry":{"type":"Point","coordinates":[-122.49842597,37.73738378]},"properties":{"name":"South Sunset Playground","type":"Park","address":"40th Avenue & Vicente","description":"Park subtype: Neighborhood Park or Playground"}},{"type":"Feature","geometry":{"type":"Point","coordinates":[-122.4031612,37.73286769]},"properties":{"name":"Silver Terrace Playground","type":"Park","address":"Thornton & Bayshore","description":"Park subtype: Neighborhood Park or Playground"}},{"type":"Feature","geometry":{"type":"Point","coordinates":[-122.47828163,37.73609308]},"properties":{"name":"Sigmund Stern Recreation Grove","type":"Park","address":"19th Avenue & Sloat Boulevard","description":"Park subtype: Regional Park"}},{"type":"Feature","geometry":{"type":"Point","coordinates":[-122.4181763,37.78539574]},"properties":{"name":"Sgt. John Macaulay Park","type":"Park","address":"Larkin & O'Farrell Streets","description":"Park subtype: Mini Park"}},{"type":"Feature","geometry":{"type":"Point","coordinates":[-122.44005228,37.75762035]},"properties":{"name":"Seward Mini Park","type":"Park","address":"Seward & Acme","description":"Park subtype: Mini Park"}},{"type":"Feature","geometry":{"type":"Point","coordinates":[-122.40038108,37.73886799]},"properties":{"name":"Selby & Palou Mini Park","type":"Park","address":"Palou & Selby","description":"Park subtype: Mini Park"}},{"type":"Feature","geometry":{"type":"Point","coordinates":[-122.44050622,37.7627227]},"properties":{"name":"Saturn Street Steps","type":"Park","address":"Saturn & Ord","description":"Park subtype: Mini Park"}},{"type":"Feature","geometry":{"type":"Point","coordinates":[-122.48041359,37.73061735]},"properties":{"name":"Rolph Nicol Playground","type":"Park","address":"Eucalyptus Drive & 25th Avenue","description":"Park subtype: Neighborhood Park or Playground"}},{"type":"Feature","geometry":{"type":"Point","coordinates":[-122.47086974,37.75384203]},"properties":{"name":"Rocky Outcrop","type":"Park","address":"Ortega & 14th Avenue","description":"Park subtype: Neighborhood Park or Playground"}},{"type":"Feature","geometry":{"type":"Point","coordinates":[-122.38328499,37.73376799]},"properties":{"name":"Ridgetop Plaza","type":"Park","address":"Whitney Young Circle","description":"Park subtype: Neighborhood Park or Playground"}},{"type":"Feature","geometry":{"type":"Point","coordinates":[-122.38349062,37.73292646]},"properties":{"name":"Hilltop Park","type":"Park","address":"LaSalle & Whitney Young Circle","description":"Park subtype: Neighborhood Park or Playground"}},{"type":"Feature","geometry":{"type":"Point","coordinates":[-122.47797676,37.78326998]},"properties":{"name":"Richmond Rec Center","type":"Park","address":"251 - 18th Avenue","description":"Park subtype: Neighborhood Park or Playground"}},{"type":"Feature","geometry":{"type":"Point","coordinates":[-122.47811169,37.78513018]},"properties":{"name":"Richmond Playground","type":"Park","address":"18th Avenue & Lake","description":"Park subtype: Neighborhood Park or Playground"}},{"type":"Feature","geometry":{"type":"Point","coordinates":[-122.43511346,37.7829429]},"properties":{"name":"Raymond Kimball Playground","type":"Park","address":"Geary Boulevard & Steiner Street","description":"Park subtype: Neighborhood Park or Playground"}},{"type":"Feature","geometry":{"type":"Point","coordinates":[-122.4636678,37.71449646]},"properties":{"name":"Randolph & Bright Mini Park","type":"Park","address":"Randolph & Bright","description":"Park subtype: Mini Park"}},{"type":"Feature","geometry":{"type":"Point","coordinates":[-122.4496013,37.78849113]},"properties":{"name":"Presidio Heights Playground","type":"Park","address":"Clay & Walnut Street","description":"Park subtype: Neighborhood Park or Playground"}},{"type":"Feature","geometry":{"type":"Point","coordinates":[-122.41188431,37.74021831]},"properties":{"name":"Prentiss Mini Park","type":"Park","address":"Prentiss & Eugenia","description":"Park subtype: Mini Park"}},{"type":"Feature","geometry":{"type":"Point","coordinates":[-122.4053425,37.79483613]},"properties":{"name":"Portsmouth Square","type":"Park","address":"Washington & Walter Lum Place","description":"Park subtype: Neighborhood Park or Playground"}},{"type":"Feature","geometry":{"type":"Point","coordinates":[-122.43790883,37.76579837]},"properties":{"name":"Peixotto Playground","type":"Park","address":"15th Street & Roosevelt","description":"Park subtype: Neighborhood Park or Playground"}},{"type":"Feature","geometry":{"type":"Point","coordinates":[-122.41355706,37.75437456]},"properties":{"name":"Parque Ninos Unidos","type":"Park","address":"23rd Street & Treat","description":"Park subtype: Neighborhood Park or Playground"}},{"type":"Feature","geometry":{"type":"Point","coordinates":[-122.40978,37.72934206]},"properties":{"name":"Palega Playground","type":"Park","address":"500 Felton Street","description":"Park subtype: Neighborhood Park or Playground"}},{"type":"Feature","geometry":{"type":"Point","coordinates":[-122.42525001,37.77347224]},"properties":{"name":"Page & Laguna Mini Park","type":"Park","address":"Page & Laguna Streets","description":"Park subtype: Mini Park"}},{"type":"Feature","geometry":{"type":"Point","coordinates":[-122.43890107,37.75140859]},"properties":{"name":"Noe Valley Courts","type":"Park","address":"24th Street & Douglass","description":"Park subtype: Neighborhood Park or Playground"}},{"type":"Feature","geometry":{"type":"Point","coordinates":[-122.46503388,37.78006349]},"properties":{"name":"Muriel Leff Mini Park","type":"Park","address":"7th Avenue between Geary & Anza","description":"Park subtype: Mini Park"}},{"type":"Feature","geometry":{"type":"Point","coordinates":[-122.46908939,37.7872368]},"properties":{"name":"Mountain Lake Park","type":"Park","address":"1 Eleventh Avenue","description":"Park subtype: Neighborhood Park or Playground"}},{"type":"Feature","geometry":{"type":"Point","coordinates":[-122.4331092,37.8021256]},"properties":{"name":"Moscone Rec Center","type":"Park","address":"1800 Chestnut Street","description":"Park subtype: Neighborhood Park or Playground"}},{"type":"Feature","geometry":{"type":"Point","coordinates":[-122.44930511,37.73864054]},"properties":{"name":"Miraloma Playground","type":"Park","address":"Omar & Sequoia Way","description":"Park subtype: Neighborhood Park or Playground"}},{"type":"Feature","geometry":{"type":"Point","coordinates":[-122.41690332,37.80111607]},"properties":{"name":"Michelangelo Playground","type":"Park","address":"Greenwich & Jones","description":"Park subtype: Neighborhood Park or Playground"}},{"type":"Feature","geometry":{"type":"Point","coordinates":[-122.47028141,37.71752279]},"properties":{"name":"Merced Heights Playground","type":"Park","address":"Byxbee & Shields Streets","description":"Park subtype: Neighborhood Park or Playground"}},{"type":"Feature","geometry":{"type":"Point","coordinates":[-122.48008531,37.74383835]},"properties":{"name":"McCoppin Square","type":"Park","address":"24th Avenue & Taraval","description":"Park subtype: Neighborhood Park or Playground"}},{"type":"Feature","geometry":{"type":"Point","coordinates":[-122.42544261,37.78085571]},"properties":{"name":"Margaret S.Hayward Playground","type":"Park","address":"1016 Laguna Street","description":"Park subtype: Neighborhood Park or Playground"}},{"type":"Feature","geometry":{"type":"Point","coordinates":[-122.42566632,37.78179932]},"properties":{"name":"Jefferson Square","type":"Park","address":"Eddy & Gough Streets","description":"Park subtype: Neighborhood Park or Playground"}},{"type":"Feature","geometry":{"type":"Point","coordinates":[-122.39822428,37.70998528]},"properties":{"name":"Little Hollywood Park","type":"Park","address":"Lathrop & Tocoloma","description":"Park subtype: Neighborhood Park or Playground"}},{"type":"Feature","geometry":{"type":"Point","coordinates":[-122.46809906,37.78184398]},"properties":{"name":"10th Ave & Clement Mini Park","type":"Park","address":"351 Ninth Avenue","description":"Park subtype: Mini Park"}},{"type":"Feature","geometry":{"type":"Point","coordinates":[-122.47205347,37.75957086]},"properties":{"name":"15th Avenue Steps","type":"Park","address":"15th Avenue from Kirkham to Lawton","description":"Park subtype: Mini Park"}},{"type":"Feature","geometry":{"type":"Point","coordinates":[-122.4352359,37.74360211]},"properties":{"name":"29th & Diamond Open Space","type":"Park","address":"29th Street & Diamond","description":"Park subtype: Neighborhood Park or Playground"}},{"type":"Feature","geometry":{"type":"Point","coordinates":[-122.38385466,37.73101645]},"properties":{"name":"Adam Rodgers Park","type":"Park","address":"Ingalls & Oakdale","description":"Park subtype: Neighborhood Park or Playground"}},{"type":"Feature","geometry":{"type":"Point","coordinates":[-122.41820146,37.75888428]},"properties":{"name":"Alioto Mini Park","type":"Park","address":"20th & Capp Streets","description":"Park subtype: Mini Park"}},{"type":"Feature","geometry":{"type":"Point","coordinates":[-122.42757113,37.79744342]},"properties":{"name":"Allyne Park","type":"Park","address":"2609 Gough Street","description":"Park subtype: Neighborhood Park or Playground"}},{"type":"Feature","geometry":{"type":"Point","coordinates":[-122.43766997,37.79117332]},"properties":{"name":"Alta Plaza Park","type":"Park","address":"Jackson & Steiner Streets","description":"Park subtype: Neighborhood Park or Playground"}},{"type":"Feature","geometry":{"type":"Point","coordinates":[-122.49720559,37.77853137]},"properties":{"name":"Anza Branch Library","type":"Park","address":"550 - 37th Avenue","description":"Park subtype: SF Public Library property"}},{"type":"Feature","geometry":{"type":"Point","coordinates":[-122.42875934,37.78045591]},"properties":{"name":"Buchanan Street Mall","type":"Park","address":"Buchanan & Grove","description":"Park subtype: Neighborhood Park or Playground"}},{"type":"Feature","geometry":{"type":"Point","coordinates":[-122.44138426,37.76855909]},"properties":{"name":"Buena Vista Park","type":"Park","address":"Buena Vista & Haight Streets","description":"Park subtype: Regional Park"}},{"type":"Feature","geometry":{"type":"Point","coordinates":[-122.4425376,37.78559204]},"properties":{"name":"Bush & Broderick Mini Park","type":"Park","address":"Baker & Bush Streets","description":"Park subtype: Mini Park"}},{"type":"Feature","geometry":{"type":"Point","coordinates":[-122.47590981,37.73836617]},"properties":{"name":"Carl Larsen Park","type":"Park","address":"19th Avenue & Vicente","description":"Park subtype: Neighborhood Park or Playground"}},{"type":"Feature","geometry":{"type":"Point","coordinates":[-122.41176349,37.7942263]},"properties":{"name":"Betty Ann Ong Chinese Rec Center","type":"Park","address":"1101 Washington Street","description":"Park subtype: Neighborhood Park or Playground"}},{"type":"Feature","geometry":{"type":"Point","coordinates":[-122.41964242,37.74441301]},"properties":{"name":"Coleridge Mini Park","type":"Park","address":"Coleridge & Esmeralda Streets","description":"Park subtype: Mini Park"}},{"type":"Feature","geometry":{"type":"Point","coordinates":[-122.43230784,37.78655971]},"properties":{"name":"Cottage Row Mini Park","type":"Park","address":"Sutter & Fillmore Streets","description":"Park subtype: Mini Park"}},{"type":"Feature","geometry":{"type":"Point","coordinates":[-122.42927522,37.71403816]},"properties":{"name":"Crocker Amazon Playground","type":"Park","address":"Moscow & Geneva Streets","description":"Park subtype: Neighborhood Park or Playground"}},{"type":"Feature","geometry":{"type":"Point","coordinates":[-122.43344298,37.76961018]},"properties":{"name":"Duboce Park","type":"Park","address":"Duboce & Scott Streets","description":"Park subtype: Neighborhood Park or Playground"}},{"type":"Feature","geometry":{"type":"Point","coordinates":[-122.39099369,37.76098612]},"properties":{"name":"Esprit Park","type":"Park","address":"Minnesota Street","description":"Park subtype: Neighborhood Park or Playground"}},{"type":"Feature","geometry":{"type":"Point","coordinates":[-122.43322729,37.72034395]},"properties":{"name":"Excelsior Playground","type":"Park","address":"Russia Avenue & Madrid","description":"Park subtype: Neighborhood Park or Playground"}},{"type":"Feature","geometry":{"type":"Point","coordinates":[-122.41207427,37.78438147]},"properties":{"name":"Father Alfred E. Boeddeker Park","type":"Park","address":"246 Eddy Street","description":"Park subtype: Neighborhood Park or Playground"}},{"type":"Feature","geometry":{"type":"Point","coordinates":[-122.41787336,37.80290677]},"properties":{"name":"Fay Park","type":"Park","address":"2366 Leavenworth Street","description":"Park subtype: Neighborhood Park or Playground"}},{"type":"Feature","geometry":{"type":"Point","coordinates":[-122.40934003,37.76501083]},"properties":{"name":"Franklin Square","type":"Park","address":"16th & Bryant Streets","description":"Park subtype: Neighborhood Park or Playground"}},{"type":"Feature","geometry":{"type":"Point","coordinates":[-122.41223611,37.75020469]},"properties":{"name":"Garfield Square","type":"Park","address":"26th & Harrison Streets","description":"Park subtype: Neighborhood Park or Playground"}},{"type":"Feature","geometry":{"type":"Point","coordinates":[-122.40633546,37.77863418]},"properties":{"name":"Eugene Friend Rec Center","type":"Park","address":"270 Sixth Street","description":"Park subtype: Neighborhood Park or Playground"}},{"type":"Feature","geometry":{"type":"Point","coordinates":[-122.4467363,37.72021162]},"properties":{"name":"Geneva Carbarn","type":"Park","address":"2301 San Jose Avenue","description":"Park subtype: Real Estate/Administrative Services property"}},{"type":"Feature","geometry":{"type":"Point","coordinates":[-122.4405556,37.74345118]},"properties":{"name":"George Christopher Playground","type":"Park","address":"5210 Diamond Heights Blvd","description":"Park subtype: Neighborhood Park or Playground"}},{"type":"Feature","geometry":{"type":"Point","coordinates":[-122.38805612,37.71721587]},"properties":{"name":"Gilman Playground","type":"Park","address":"Gilman Avenue & Griffith","description":"Park subtype: Neighborhood Park or Playground"}},{"type":"Feature","geometry":{"type":"Point","coordinates":[-122.43347384,37.77956704]},"properties":{"name":"Golden Gate & Steiner Mini Park","type":"Park","address":"Golden Gate & Steiner","description":"Park subtype: Mini Park"}},{"type":"Feature","geometry":{"type":"Point","coordinates":[-122.47180166,37.75645762]},"properties":{"name":"Grand View Park","type":"Park","address":"Moraga & 14th Avenue (Noriega)","description":"Park subtype: Neighborhood Park or Playground"}},{"type":"Feature","geometry":{"type":"Point","coordinates":[-122.45147652,37.76259315]},"properties":{"name":"Grattan Playground","type":"Park","address":"1180 Stanyan St","description":"Park subtype: Neighborhood Park or Playground"}},{"type":"Feature","geometry":{"type":"Point","coordinates":[-122.43600315,37.78441859]},"properties":{"name":"Hamilton Playground","type":"Park","address":"1900 Geary Boulevard","description":"Park subtype: Neighborhood Park or Playground"}},{"type":"Feature","geometry":{"type":"Point","coordinates":[-122.42739328,37.77606382]},"properties":{"name":"Hayes Valley Playground","type":"Park","address":"Hayes & Buchanan Streets","description":"Park subtype: Neighborhood Park or Playground"}},{"type":"Feature","geometry":{"type":"Point","coordinates":[-122.42063959,37.79579014]},"properties":{"name":"Helen Wills Playground","type":"Park","address":"Broadway & Larkin","description":"Park subtype: Neighborhood Park or Playground"}},{"type":"Feature","geometry":{"type":"Point","coordinates":[-122.41907875,37.79763931]},"properties":{"name":"Hyde & Vallejo Mini Park","type":"Park","address":"Hyde & Vallejo Streets","description":"Park subtype: Mini Park"}},{"type":"Feature","geometry":{"type":"Point","coordinates":[-122.4133998,37.79818891]},"properties":{"name":"Ina Coolbrith Park","type":"Park","address":"Vallejo & Taylor","description":"Park subtype: Mini Park"}},{"type":"Feature","geometry":{"type":"Point","coordinates":[-122.4650239,37.75179865]},"properties":{"name":"J.P. Murphy Playground","type":"Park","address":"1960 Ninth Avenue","description":"Park subtype: Neighborhood Park or Playground"}},{"type":"Feature","geometry":{"type":"Point","coordinates":[-122.39960695,37.76431207]},"properties":{"name":"Jackson Playground","type":"Park","address":"17th & Arkansas Streets","description":"Park subtype: Neighborhood Park or Playground"}},{"type":"Feature","geometry":{"type":"Point","coordinates":[-122.42975171,37.78521554]},"properties":{"name":"Japantown Peace Plaza","type":"Park","address":"Post & Buchanan Streets","description":"Park subtype: Civic Plaza or Square"}},{"type":"Feature","geometry":{"type":"Point","coordinates":[-122.41510359,37.75752585]},"properties":{"name":"Jose Coronado Playground","type":"Park","address":"21st & Folsom Streets","description":"Park subtype: Neighborhood Park or Playground"}},{"type":"Feature","geometry":{"type":"Point","coordinates":[-122.47385578,37.72480992]},"properties":{"name":"Junipero Serra Playground","type":"Park","address":"300 Stonecrest Drive","description":"Park subtype: Neighborhood Park or Playground"}},{"type":"Feature","geometry":{"type":"Point","coordinates":[-122.42198712,37.74950892]},"properties":{"name":"Juri Commons","type":"Park","address":"Guerrero & 26th Streets","description":"Park subtype: Mini Park"}},{"type":"Feature","geometry":{"type":"Point","coordinates":[-122.41314299,37.70853427]},"properties":{"name":"Kelloch & Velasco Mini Park","type":"Park","address":"Kelloch & Velasco Streets","description":"Park subtype: Mini Park"}},{"type":"Feature","geometry":{"type":"Point","coordinates":[-122.42029714,37.76415327]},"properties":{"name":"Kid Power Park","type":"Park","address":"45 Hoff Street","description":"Park subtype: Neighborhood Park or Playground"}},{"type":"Feature","geometry":{"type":"Point","coordinates":[-122.42675859,37.77326528]},"properties":{"name":"Koshland Park","type":"Park","address":"Page & Buchanan Streets","description":"Park subtype: Neighborhood Park or Playground"}},{"type":"Feature","geometry":{"type":"Point","coordinates":[-122.45092395,37.78395423]},"properties":{"name":"Laurel Hill Playground","type":"Park","address":"251 Euclid Avenue","description":"Park subtype: Neighborhood Park or Playground"}},{"type":"Feature","geometry":{"type":"Point","coordinates":[-122.39581332,37.71768467]},"properties":{"name":"Ralph D. House Community Park","type":"Park","address":"845 Meade Street","description":"Park subtype: Mini Park"}},{"type":"Feature","geometry":{"type":"Point","coordinates":[-122.42441308,37.77622289]},"properties":{"name":"Patricia's Green in Hayes Valley","type":"Park","address":"Octavia Boulevard @ Hayes","description":"Park subtype: Mini Park"}},{"type":"Feature","geometry":{"type":"Point","coordinates":[-122.43732773,37.76656622]},"properties":{"name":"Roosevelt & Henry Stairs","type":"Park","address":"299 Henry Street","description":"Park subtype: Mini Park"}},{"type":"Feature","geometry":{"type":"Point","coordinates":[-122.4289766,37.75138081]},"properties":{"name":"Noe Valley Town Square","type":"Park","address":"3861 24th Street","description":"Park subtype: Mini Park"}},{"type":"Feature","geometry":{"type":"Point","coordinates":[-122.39438516,37.78667682]},"properties":{"name":"Guy Place Mini Park","type":"Park","address":"4 - 8 Guy Place","description":"Park subtype: Mini Park"}},{"type":"Feature","geometry":{"type":"Point","coordinates":[-122.42086212,37.80394178]},"properties":{"name":"Francisco Park","type":"Park","address":"Hyde & Bay","description":"Park subtype: Neighborhood Park or Playground"}},{"type":"Feature","geometry":{"type":"Point","coordinates":[-122.46315999,37.75662091]},"properties":{"name":"White Crane Springs","type":"Park","address":"South of 7th Avenue & Lawton","description":"Park subtype: Community Garden"}},{"type":"Feature","geometry":{"type":"Point","coordinates":[-122.4122056,37.8024924]},"properties":{"name":"Joe DiMaggio Playground","type":"Park","address":"651 Lombard Street","description":"Park subtype: Neighborhood Park or Playground"}},{"type":"Feature","geometry":{"type":"Point","coordinates":[-122.46677869,37.71728044]},"properties":{"name":"Brooks Park","type":"Park","address":"373 Ramsell Street","description":"Park subtype: Neighborhood Park or Playground"}},{"type":"Feature","geometry":{"type":"Point","coordinates":[-122.40710417,37.80463539]},"properties":{"name":"Chestnut & Kearny Open Space","type":"Park","address":"Chestnut & Kearny","description":"Park subtype: Mini Park"}},{"type":"Feature","geometry":{"type":"Point","coordinates":[-122.42102942,37.77018274]},"properties":{"name":"SOMA West Skate Park","type":"Park","address":"Stevenson Street & Duboce","description":"Park subtype: Neighborhood Park or Playground"}},{"type":"Feature","geometry":{"type":"Point","coordinates":[-122.42199036,37.77045005]},"properties":{"name":"SOMA West Dog Park","type":"Park","address":"Stevenson Street & Duboce","description":"Park subtype: Neighborhood Park or Playground"}},{"type":"Feature","geometry":{"type":"Point","coordinates":[-122.40632698,37.71260185]},"properties":{"name":"Visitacion Valley Greenway","type":"Park","address":"Lel& & Peabody Streets","description":"Park subtype: Neighborhood Park or Playground"}},{"type":"Feature","geometry":{"type":"Point","coordinates":[-122.47077002,37.76712853]},"properties":{"name":"Golden Gate Park - Section 3","type":"Park","address":"Stanyan & Great Highway","description":"Park subtype: Regional Park"}},{"type":"Feature","geometry":{"type":"Point","coordinates":[-122.45670293,37.77070118]},"properties":{"name":"Golden Gate Park - Section 1","type":"Park","address":"Stanyan & Great Highway","description":"Park subtype: Regional Park"}},{"type":"Feature","geometry":{"type":"Point","coordinates":[-122.46467938,37.76968204]},"properties":{"name":"Golden Gate Park - Section 2","type":"Park","address":"Stanyan & Great Highway","description":"Park subtype: Regional Park"}},{"type":"Feature","geometry":{"type":"Point","coordinates":[-122.47868619,37.76899577]},"properties":{"name":"Golden Gate Park - Section 4","type":"Park","address":"Stanyan & Great Highway","description":"Park subtype: Regional Park"}},{"type":"Feature","geometry":{"type":"Point","coordinates":[-122.50416335,37.76771698]},"properties":{"name":"Golden Gate Park - Section 6","type":"Park","address":"Stanyan & Great Highway","description":"Park subtype: Regional Park"}},{"type":"Feature","geometry":{"type":"Point","coordinates":[-122.49121806,37.76926575]},"properties":{"name":"Golden Gate Park - Section 5","type":"Park","address":"Stanyan & Great Highway","description":"Park subtype: Regional Park"}},{"type":"Feature","geometry":{"type":"Point","coordinates":[-122.38105248,37.73185758]},"properties":{"name":"Shoreview Park","type":"Park","address":"17 Lillian Ct","description":"Park subtype: Neighborhood Park or Playground"}},{"type":"Feature","geometry":{"type":"Point","coordinates":[-122.43879694,37.76497671]},"properties":{"name":"Corona Heights Park","type":"Park","address":"Roosevelt & Museum Way","description":"Park subtype: Neighborhood Park or Playground"}},{"type":"Feature","geometry":{"type":"Point","coordinates":[-122.41573961,37.76391114]},"properties":{"name":"In Chan Kaajal Park","type":"Park","address":"17th & Folsom St","description":"Park subtype: Neighborhood Park or Playground"}},{"type":"Feature","geometry":{"type":"Point","coordinates":[-122.45781907,37.77789435]},"properties":{"name":"Angelo J. Rossi Playground","type":"Park","address":"2 Willard North Street","description":"Park subtype: Neighborhood Park or Playground"}},{"type":"Feature","geometry":{"type":"Point","coordinates":[-122.45034105,37.71388643]},"properties":{"name":"Cayuga Playground","type":"Park","address":"301 Naglee Avenue","description":"Park subtype: Neighborhood Park or Playground"}},{"type":"Feature","geometry":{"type":"Point","coordinates":[-122.43890885,37.74728559]},"properties":{"name":"Douglass Playground","type":"Park","address":"26th & Douglass Street","description":"Park subtype: Neighborhood Park or Playground"}},{"type":"Feature","geometry":{"type":"Point","coordinates":[-122.49083311,37.78268788]},"properties":{"name":"DuPont Tennis Courts","type":"Park","address":"336 - 31st Avenue","description":"Park subtype: Neighborhood Park or Playground"}},{"type":"Feature","geometry":{"type":"Point","coordinates":[-122.43647334,37.75976768]},"properties":{"name":"Eureka Valley Rec Center","type":"Park","address":"100 Collingwood Street","description":"Park subtype: Neighborhood Park or Playground"}},{"type":"Feature","geometry":{"type":"Point","coordinates":[-122.43179597,37.78019049]},"properties":{"name":"Fillmore & Turk Mini Park","type":"Park","address":"Fillmore & Turk Streets","description":"Park subtype: Mini Park"}},{"type":"Feature","geometry":{"type":"Point","coordinates":[-122.48693406,37.7733822]},"properties":{"name":"Fulton Playground","type":"Park","address":"855 27th Avenue","description":"Park subtype: Neighborhood Park or Playground"}},{"type":"Feature","geometry":{"type":"Point","coordinates":[-122.41906274,37.80667244]},"properties":{"name":"Joseph Conrad Mini Park","type":"Park","address":"601 Beach Street","description":"Park subtype: Mini Park"}},{"type":"Feature","geometry":{"type":"Point","coordinates":[-122.42767357,37.79154982]},"properties":{"name":"Lafayette Park","type":"Park","address":"Gough & Washington Streets","description":"Park subtype: Neighborhood Park or Playground"}},{"type":"Feature","geometry":{"type":"Point","coordinates":[-122.42708221,37.75975164]},"properties":{"name":"Mission Dolores Park","type":"Park","address":"19th & Dolores Streets","description":"Park subtype: Neighborhood Park or Playground"}},{"type":"Feature","geometry":{"type":"Point","coordinates":[-122.42230383,37.75930588]},"properties":{"name":"Mission Playground","type":"Park","address":"19th Street & Linda","description":"Park subtype: Neighborhood Park or Playground"}},{"type":"Feature","geometry":{"type":"Point","coordinates":[-122.41291363,37.7581371]},"properties":{"name":"Mission Rec Center","type":"Park","address":"2450 Harrison Street","description":"Park subtype: Neighborhood Park or Playground"}},{"type":"Feature","geometry":{"type":"Point","coordinates":[-122.39473574,37.73551927]},"properties":{"name":"Palou & Phelps Park","type":"Park","address":"Palou & Phelps Streets","description":"Park subtype: Neighborhood Park or Playground"}},{"type":"Feature","geometry":{"type":"Point","coordinates":[-122.48392034,37.73797354]},"properties":{"name":"Parkside Square","type":"Park","address":"28th Avenue & Vicente","description":"Park subtype: Neighborhood Park or Playground"}},{"type":"Feature","geometry":{"type":"Point","coordinates":[-122.48592555,37.73630911]},"properties":{"name":"Pine Lake Park","type":"Park","address":"Sloat Boulevard & Vale Street","description":"Park subtype: Regional Park"}},{"type":"Feature","geometry":{"type":"Point","coordinates":[-122.44405944,37.74707418]},"properties":{"name":"Portola Open Space","type":"Park","address":"201 Portola @ Clipper","description":"Park subtype: Mini Park"}},{"type":"Feature","geometry":{"type":"Point","coordinates":[-122.40508475,37.75060217]},"properties":{"name":"Potrero del Sol","type":"Park","address":"Potrero & Army Streets","description":"Park subtype: Neighborhood Park or Playground"}},{"type":"Feature","geometry":{"type":"Point","coordinates":[-122.39751884,37.79577739]},"properties":{"name":"Sue Bierman Park","type":"Park","address":"Clay Street & The Embarcadero","description":"Park subtype: Neighborhood Park or Playground"}},{"type":"Feature","geometry":{"type":"Point","coordinates":[-122.44746419,37.73366439]},"properties":{"name":"Sunnyside Playground","type":"Park","address":"233 Melrose Avenue","description":"Park subtype: Neighborhood Park or Playground"}},{"type":"Feature","geometry":{"type":"Point","coordinates":[-122.46507086,37.74183309]},"properties":{"name":"West Portal Playground","type":"Park","address":"Ulloa & Lenox Streets","description":"Park subtype: Neighborhood Park or Playground"}},{"type":"Feature","geometry":{"type":"Point","coordinates":[-122.38448964,37.73876902]},"properties":{"name":"Youngblood-Coleman Playground","type":"Park","address":"1398 Hudson Street","description":"Park subtype: Neighborhood Park or Playground"}},{"type":"Feature","geometry":{"type":"Point","coordinates":[-122.46421929,37.71262615]},"properties":{"name":"Head & Brotherood Mini Park","type":"Park","address":"Head Street & Brotherhood Way","description":"Park subtype: Mini Park"}},{"type":"Feature","geometry":{"type":"Point","coordinates":[-122.40620398,37.8019919]},"properties":{"name":"Telegraph Hill - Pioneer Park","type":"Park","address":"Telegraph Hill Boulevard","description":"Park subtype: Civic Plaza or Square"}},{"type":"Feature","geometry":{"type":"Point","coordinates":[-122.40623124,37.74972741]},"properties":{"name":"James Rolph Jr. Playground","type":"Park","address":"1396 Hampshire St","description":"Park subtype: Neighborhood Park or Playground"}},{"type":"Feature","geometry":{"type":"Point","coordinates":[-122.39891,37.7884]},"properties":{"name":"555 Mission St","type":"Privately Owned Public Open Space","address":"555 Mission St","description":"This large plaza has several art and landscaping features. It is located in front of 555 Mission Streets and runs along the west side of the building. There are several distinct sitting areas with different styles of seating."}},{"type":"Feature","geometry":{"type":"Point","coordinates":[-122.400283,37.789]},"properties":{"name":"55 Second St - C","type":"Privately Owned Public Open Space","address":"55 Second St","description":""}},{"type":"Feature","geometry":{"type":"Point","coordinates":[-122.4004526,37.79098054]},"properties":{"name":"1 Bush Street","type":"Privately Owned Public Open Space","address":"1 Bush Street","description":"This Urban Garden provides a sunken space featuring a water fountain. Space is accessed with stairs from Bush Street and curved walkways from Market street."}},{"type":"Feature","geometry":{"type":"Point","coordinates":[-122.39908,37.78892]},"properties":{"name":"560 Mission St","type":"Privately Owned Public Open Space","address":"560 Mission St","description":"This large plaza features a sculpture in a pool of water, a large bamboo grove, and various forms of seating. It is served by a cafe."}},{"type":"Feature","geometry":{"type":"Point","coordinates":[-122.39491,37.78967]},"properties":{"name":"199 Fremont St","type":"Privately Owned Public Open Space","address":"199 Fremont St","description":"This large plaza space features extensive rock landscaping and artwork. There are two adjoined areas, one of which has food service."}},{"type":"Feature","geometry":{"type":"Point","coordinates":[-122.402168,37.79505236]},"properties":{"name":"Redwood Park","type":"Privately Owned Public Open Space","address":"535 Washington St","description":"This extensively landscaped urban park offers redwood trees at the foot of the Transamerica Pyramid. It features, a tall water fountain, sculptures, and ample seating."}},{"type":"Feature","geometry":{"type":"Point","coordinates":[-122.402717,37.790618]},"properties":{"name":"Trinity Alley","type":"Privately Owned Public Open Space","address":"333 Bush St","description":"Alley way with ample seating and greenery outside multiple restaurants."}},{"type":"Feature","geometry":{"type":"Point","coordinates":[-122.40091,37.79263]},"properties":{"name":"345 California St - West C","type":"Privately Owned Public Open Space","address":"345 California St","description":"Two snippets can be found on the west and east sides of the building, connected by an interior walkway. The west snippet can be entered from Sansome Street, next to the Mandarin Hotel. There is a bench and bamboo in planters. The east snippet is on the Battery Street side, served by a cafe which has several tables in front, and no plants."}},{"type":"Feature","geometry":{"type":"Point","coordinates":[-122.3997831,37.78902357]},"properties":{"name":"71 Stevenson St","type":"Privately Owned Public Open Space","address":"71 Stevenson St","description":"The open space connects Stevenson Street and Jessie Street, including planter boxes, a water fountaing, and seating with table outside the cafe."}},{"type":"Feature","geometry":{"type":"Point","coordinates":[-122.40125,37.79446]},"properties":{"name":"Embarcadero Center West 1, 2, & 3","type":"Privately Owned Public Open Space","address":"1-5 Embarcadero Center","description":"Commercial Street throughout Embarcadero 1, 2, and 3 is a pedestrian mall on ground floor and 2nd level, which is accessed by an elaborate staircase system, flanked by waterfalls. Fountains, foliage, art work, and bench seating found throughout."}},{"type":"Feature","geometry":{"type":"Point","coordinates":[-122.4007273,37.78900186]},"properties":{"name":"595 Market St","type":"Privately Owned Public Open Space","address":"595 Market St","description":"This plaza is located on 2nd. Street and Stevenson. Seating is only available on the steps beyon the table and seating provided for the food establishment."}},{"type":"Feature","geometry":{"type":"Point","coordinates":[-122.40228,37.79439]},"properties":{"name":"Commercial Street (235 Pine Entitlement)","type":"Privately Owned Public Open Space","address":"235 Pine St","description":"Linear park improvements along Commercial Street feature various types of trees and concrete linear seating. These spaces are served by many cafés and restaurants along Commercial Street. Additional seating is provided during lunch hours."}},{"type":"Feature","geometry":{"type":"Point","coordinates":[-122.4001579,37.78975722]},"properties":{"name":"555/557 Market St","type":"Privately Owned Public Open Space","address":"555/557 Market St","description":"Extensive landscaping combined with water features signify this space between two high rises. Seating,however, is only availabe to employees."}},{"type":"Feature","geometry":{"type":"Point","coordinates":[-122.39656,37.79052]},"properties":{"name":"Millenium Tower Plaza","type":"Privately Owned Public Open Space","address":"301 Mission St","description":"This atrium features extensive artwork and is served by a bar/restaurant on the premises. It has various types of seating with tables, and high windows overhead."}},{"type":"Feature","geometry":{"type":"Point","coordinates":[-122.4028214,37.78927548]},"properties":{"name":"Crocker Galleria","type":"Privately Owned Public Open Space","address":"165 Sutter St","description":""}},{"type":"Feature","geometry":{"type":"Point","coordinates":[-122.3975305,37.79380746]},"properties":{"name":"50 California St","type":"Privately Owned Public Open Space","address":"50 California St","description":"Plaza and wrap around walkway with seating along planters."}},{"type":"Feature","geometry":{"type":"Point","coordinates":[-122.40487,37.79277]},"properties":{"name":"600 California St","type":"Privately Owned Public Open Space","address":"600 California St","description":"A shady open space area with art in the form of sculptures. This snippet found on the northwest side of the building, up the stairs. It adjoins the open space of the adjacent building."}},{"type":"Feature","geometry":{"type":"Point","coordinates":[-122.3962255,37.79173693]},"properties":{"name":"77 Beale St","type":"Privately Owned Public Open Space","address":"77 Beale St","description":"Plaza with high planters that provide some landscaping but no seating."}},{"type":"Feature","geometry":{"type":"Point","coordinates":[-122.396,37.7888]},"properties":{"name":"Foundry Square NE","type":"Privately Owned Public Open Space","address":"400 Howard St","description":"This is one of three plazas fronting the intersection of 1st and Howard, forming Foundary Square. It features art sculptures and seating near a cafe."}},{"type":"Feature","geometry":{"type":"Point","coordinates":[-122.398,37.793249]},"properties":{"name":"101 California St","type":"Privately Owned Public Open Space","address":"101 California Street","description":""}},{"type":"Feature","geometry":{"type":"Point","coordinates":[-122.39684,37.78577]},"properties":{"name":"Marriott Courtyard - A (Starbucks)","type":"Privately Owned Public Open Space","address":"299 2nd St","description":"Thayer referenced something that is not part of the open space requirement, this is pedestrian improvement requirement.  Per Thayer:  This open space has benches and landscaping along the sidewalk on Folsom at street level."}},{"type":"Feature","geometry":{"type":"Point","coordinates":[-122.3972841,37.79335343]},"properties":{"name":"1 California St","type":"Privately Owned Public Open Space","address":"1 California St","description":"Wrap around plaza area with seating near food services."}},{"type":"Feature","geometry":{"type":"Point","coordinates":[-122.39864,37.79361]},"properties":{"name":"150 California St","type":"Privately Owned Public Open Space","address":"150 California St","description":"This view terrace is located six stories above the street level. There is a large sculpture, long periods of sunlight, and several types of seating. There are extensive views of the surrounding area."}},{"type":"Feature","geometry":{"type":"Point","coordinates":[-122.3997369,37.79034281]},"properties":{"name":"525 Market St","type":"Privately Owned Public Open Space","address":"525 Market St","description":"This is a two level open space, with granite wall water fountains at the sidewalk level near Market Street and a view to the landscaped space on the second level."}},{"type":"Feature","geometry":{"type":"Point","coordinates":[-122.39823,37.78638]},"properties":{"name":"222 2nd St","type":"Privately Owned Public Open Space","address":"222 2nd St","description":"An enclosed open space, with operable floor to ceiling windows and doors; located within the street-level lobby."}},{"type":"Feature","geometry":{"type":"Point","coordinates":[-122.41971,37.77613]},"properties":{"name":"77 Van Ness Ave","type":"Privately Owned Public Open Space","address":"77 Van Ness Ave","description":"This space is in the front lobby of 77 Van Ness. It has tables and chairs and features a sculpture."}},{"type":"Feature","geometry":{"type":"Point","coordinates":[-122.39938,37.78993]},"properties":{"name":"49 Stevenson St","type":"Privately Owned Public Open Space","address":"49 Stevenson St","description":"This pedestrian walkway has small fountains and an art sculpture are featured in this space. Plaza seating is available for patrons of Yank Sing restaurant only."}},{"type":"Feature","geometry":{"type":"Point","coordinates":[-122.39953,37.78803]},"properties":{"name":"101 2nd St","type":"Privately Owned Public Open Space","address":"101 2nd St","description":"This greenhouse features large trees, windows, and art. It has two levels of space and is served by a cafe."}},{"type":"Feature","geometry":{"type":"Point","coordinates":[-122.3925458,37.79015362]},"properties":{"name":"221 Main St","type":"Privately Owned Public Open Space","address":"221 Main St","description":"An open plaza with some seating, landscaping and planters."}},{"type":"Feature","geometry":{"type":"Point","coordinates":[-122.394009,37.790744]},"properties":{"name":"250 Howard","type":"Privately Owned Public Open Space","address":"250 Howard","description":""}},{"type":"Feature","geometry":{"type":"Point","coordinates":[-122.39797,37.79358]},"properties":{"name":"100 California St","type":"Privately Owned Public Open Space","address":"100 California St","description":"This is a large plaza with planter boxes, along with smaller spaces along Davis Street. There is also space for food service to serve the plaza in the future."}},{"type":"Feature","geometry":{"type":"Point","coordinates":[-122.4007979,37.79047982]},"properties":{"name":"Citygroup Center","type":"Privately Owned Public Open Space","address":"1 Sansome St","description":"Built with marble, and covered with glass, this greenhouse provides ample seating and tables."}},{"type":"Feature","geometry":{"type":"Point","coordinates":[-122.3961,37.7882]},"properties":{"name":"Foundry Square SW (outdoor)","type":"Privately Owned Public Open Space","address":"505-525 Howard St (200 1st St)","description":""}},{"type":"Feature","geometry":{"type":"Point","coordinates":[-122.39566,37.78852]},"properties":{"name":"Foundry Square SE","type":"Privately Owned Public Open Space","address":"405 Howard St","description":"This is one of three plazas on the 1st and Howard intersection, forming Foundry Square. This space features a sculpture, landscape, and seating near food services."}},{"type":"Feature","geometry":{"type":"Point","coordinates":[-122.39889,37.79347]},"properties":{"name":"200 California St","type":"Privately Owned Public Open Space","address":"200 California St","description":"This pedestrian seating area is on a widened sidewalk. Pedestrians may sit on linear seating that forms a planter box. There is a small, public sculpture next to the planter box."}},{"type":"Feature","geometry":{"type":"Point","coordinates":[-122.3957,37.78522]},"properties":{"name":"Marathon Plaza","type":"Privately Owned Public Open Space","address":"303 Second St","description":"Large, triangular urban garden facing Second Street with a water feature, ample seating, and lush landscaping. Deli and restaurant open to the park provide food and additional seating."}},{"type":"Feature","geometry":{"type":"Point","coordinates":[-122.3916275,37.79094499]},"properties":{"name":"201 Spear St","type":"Privately Owned Public Open Space","address":"201 Spear St","description":"Plaza with seating along planters."}},{"type":"Feature","geometry":{"type":"Point","coordinates":[-122.3969164,37.79160342]},"properties":{"name":"50 Beale St","type":"Privately Owned Public Open Space","address":"50 Beale St","description":"Large well landscaped plaza with many seating options."}},{"type":"Feature","geometry":{"type":"Point","coordinates":[-122.400283,37.789]},"properties":{"name":"55 Second St - A","type":"Privately Owned Public Open Space","address":"55 Second St","description":"This large, indoor \"park\" located inside the historia building has a wooden floor, tables with chairs, and large, comfortable leather chairs on a carpeted section near the large window looking out on Stevenson Street."}},{"type":"Feature","geometry":{"type":"Point","coordinates":[-122.40046,37.79306]},"properties":{"name":"345 California St - A","type":"Privately Owned Public Open Space","address":"345 California St","description":"This open space is provided in the form of a large plaza fronting California Street. Additionally, two snippets can be found on the west and east sides of the building, connected by an interior walkway. The plaza and east snippet are served by restaurants"}},{"type":"Feature","geometry":{"type":"Point","coordinates":[-122.398796,37.78961221]},"properties":{"name":"25 Jessie St","type":"Privately Owned Public Open Space","address":"25 Jessie St","description":"This urban garden include a water feature combined with a tall art piece. Seating available on the ledeges of raised water feature."}},{"type":"Feature","geometry":{"type":"Point","coordinates":[-122.3986814,37.78915139]},"properties":{"name":"Golden Gate University","type":"Privately Owned Public Open Space","address":"536 Mission St","description":"Concrete seating streches along the passage that connects the recessed entrance of Golden Gate University to the sidewalk on Mission Street."}},{"type":"Feature","geometry":{"type":"Point","coordinates":[-122.39423,37.79219]},"properties":{"name":"123 Mission St","type":"Privately Owned Public Open Space","address":"123 Mission St","description":"This large plaza features extensive landscaping and art. Seperate seating areas with seating characterize the area."}},{"type":"Feature","geometry":{"type":"Point","coordinates":[-122.396685,37.791]},"properties":{"name":"350 Mission St","type":"Privately Owned Public Open Space","address":"350 Mission St","description":"An enclosed open space, with operable sliding glass doors that open up to street frontage; located within the street-level lobby."}},{"type":"Feature","geometry":{"type":"Point","coordinates":[-122.40384,37.79428]},"properties":{"name":"Empire Park","type":"Privately Owned Public Open Space","address":"642 Commercial St","description":"Empire park, located at 642 Commercial, is an urban garden that features a water fountain and landscaping. Along Commercial in front of Empire park, there are many widened sidewalk spaces which have benches and landscaping."}},{"type":"Feature","geometry":{"type":"Point","coordinates":[-122.3928858,37.7903972]},"properties":{"name":"211 Main St","type":"Privately Owned Public Open Space","address":"211 Main St","description":"Open plaza with two benches and a gated children's play area through to Spear Street."}},{"type":"Feature","geometry":{"type":"Point","coordinates":[-122.3986815,37.79167436]},"properties":{"name":"444 Market  St","type":"Privately Owned Public Open Space","address":"444 Market St","description":"Plaza with no seating."}},{"type":"Feature","geometry":{"type":"Point","coordinates":[-122.395367,37.789785]},"properties":{"name":"181 Fremont","type":"Privately Owned Public Open Space","address":"181 Fremont","description":""}},{"type":"Feature","geometry":{"type":"Point","coordinates":[-122.39668,37.78576]},"properties":{"name":"Marriott Courtyard - B (Starbucks)","type":"Privately Owned Public Open Space","address":"299 2nd St","description":"This open space has a small sitting space below street level on the corner of Folsom and Second, served by a café."}},{"type":"Feature","geometry":{"type":"Point","coordinates":[-122.397889,37.79076641]},"properties":{"name":"14 Fremont St","type":"Privately Owned Public Open Space","address":"14 Fremont St","description":"This open space is a through walkway between Fremont and 1rst Street that opens into an interior plaza.  A farmers market was operating on location."}},{"type":"Feature","geometry":{"type":"Point","coordinates":[-122.4052002,37.79305037]},"properties":{"name":"650 California St","type":"Privately Owned Public Open Space","address":"650 California St","description":"This open space is elevated with the street slope. A large art piece represents one entrance to the open space on California Street. This space surrounds the building and offers seating on the ledges of planter boxes."}},{"type":"Feature","geometry":{"type":"Point","coordinates":[-122.39631,37.78854]},"properties":{"name":"Foundry Square NW","type":"Privately Owned Public Open Space","address":"500 Howard St","description":"This is one of three plazas on the 1st and Howard intersection, forming Foundry Square. This space features a sculpture, landscape, and seating near food services."}},{"type":"Feature","geometry":{"type":"Point","coordinates":[-122.3912118,37.79122985]},"properties":{"name":"Gap Building","type":"Privately Owned Public Open Space","address":"2 Folsom St","description":"This is a large plaza with several seating areas. Art sculptures are featured along with diverse landscaping."}},{"type":"Feature","geometry":{"type":"Point","coordinates":[-122.3942667,37.78968512]},"properties":{"name":"301 Howard St","type":"Privately Owned Public Open Space","address":"301 Howard St","description":"Landscaped seating area located kitty-corner to 301 Howard."}},{"type":"Feature","geometry":{"type":"Point","coordinates":[-122.4026463,37.78862256]},"properties":{"name":"1 Post St","type":"Privately Owned Public Open Space","address":"1 Post St","description":"Snippets surrounding the hexagonal fence of Montgomery Bart Station sunken plaza. This space include concrete steps with some planter boxes."}},{"type":"Feature","geometry":{"type":"Point","coordinates":[-122.40011,37.78895]},"properties":{"name":"55 Second St - B","type":"Privately Owned Public Open Space","address":"55 Second St","description":"This space is located outside the rear entry of 55 Second Street. It has planter boxes that serve as seating throughout the plaza."}},{"type":"Feature","geometry":{"type":"Point","coordinates":[-122.3922192,37.79073351]},"properties":{"name":"180 Howard St","type":"Privately Owned Public Open Space","address":"180 Howard St","description":"A cul-de-sac walkway with benches at the end."}},{"type":"Feature","geometry":{"type":"Point","coordinates":[-122.3967306,37.78516765]},"properties":{"name":"611 Folsom St","type":"Privately Owned Public Open Space","address":"611 Folsom St","description":"Brick plaza with some trees, artwork and seating on brick structures."}},{"type":"Feature","geometry":{"type":"Point","coordinates":[-122.40376,37.78784]},"properties":{"name":"1 Kearny St","type":"Privately Owned Public Open Space","address":"1 Kearny St","description":"This rooftop terrace has extensive views of Market St. as well as rooftop architecture of nearby buildings. Landscaping and bench seating support this space."}},{"type":"Feature","geometry":{"type":"Point","coordinates":[-122.39797,37.7891]},"properties":{"name":"100 1st St","type":"Privately Owned Public Open Space","address":"100 1st St","description":"The large Sun Terrace features extensive landscaping and seating. Several art sculptures are featured, along with an elevated view of the street below. There is a 'grand' staircase (snippet) up to the Sun Terrace. Ground level arcade in front of building on Mission side features retail and eating/drinking establishments."}},{"type":"Feature","geometry":{"type":"Point","coordinates":[-122.40146,37.79374]},"properties":{"name":"343 Sansome","type":"Privately Owned Public Open Space","address":"343 Sansome St","description":"This fifteenth floor open space has excellent views of surrounding buildings and streets, as well as the San Francisco Bay. It has various types of seating and landscaping. It also has art in the form of a large sundial."}},{"type":"Feature","geometry":{"type":"Point","coordinates":[-122.3961,37.7882]},"properties":{"name":"Foundry Square SW (indoor)","type":"Privately Owned Public Open Space","address":"505-525 Howard St (200 1st St)","description":""}},{"type":"Feature","geometry":{"type":"Point","coordinates":[-122.3933711,37.79154685]},"properties":{"name":"Spear Street Plaza","type":"Privately Owned Public Open Space","address":"160 Spear St","description":"Well landscaped walkway with seating and tables."}},{"type":"Feature","geometry":{"type":"Point","coordinates":[-122.4027974,37.79363998]},"properties":{"name":"456 Montomery St","type":"Privately Owned Public Open Space","address":"456 Montgomery St","description":"This is a sunken plaza, landscaped with flowers and small water fountains. Escalators are provided to this space."}},{"type":"Feature","geometry":{"type":"Point","coordinates":[-122.39259,37.79208]},"properties":{"name":"Rincon Center","type":"Privately Owned Public Open Space","address":"121 Spear St","description":"This large plaza space is found in the interior courtyard between Rincon Center 1 and Rincon Center 2. It features several art sculptures and different types of seating."}},{"type":"Feature","geometry":{"type":"Point","coordinates":[-122.3985102,37.79111153]},"properties":{"name":"425 Market St","type":"Privately Owned Public Open Space","address":"425 Market St","description":"An open plaza between buildings with benches, trees and some landscape materials."}},{"type":"Feature","geometry":{"type":"Point","coordinates":[-122.40005,37.79286]},"properties":{"name":"345 California St - East B","type":"Privately Owned Public Open Space","address":"345 California St","description":"Two snippets can be found on the west and east sides of the building, connected by an interior walkway. The west snippet can be entered from Sansome Street, next to the Mandarin Hotel. There is a bench and bamboo in planters. The east snippet is on the Battery Street side, served by a cafe which has several tables in front, and no plants."}},{"type":"Feature","geometry":{"type":"Point","coordinates":[-122.39669,37.78611]},"properties":{"name":"Marriott Courtyard - C","type":"Privately Owned Public Open Space","address":"299 2nd St","description":"This space features extensive landscaping with several art attractions. Comfortable seating arrangements are located throughout the space. Food service nearby inside the hotel."}},{"type":"Feature","geometry":{"type":"Point","coordinates":[-122.407839,37.78219483]},"properties":{"name":"Hampton Inn","type":"Privately Owned Public Open Space","address":"942 Mission Street","description":"Rooftop sun and view terrace, with 360 degree views of the city; with limited seating benches."}},{"type":"Feature","geometry":{"type":"Point","coordinates":[-122.3991592,37.79273921]},"properties":{"name":"100 Pine St","type":"Privately Owned Public Open Space","address":"100 Pine St","description":"This Urban Garden is either accessed through the front entrance of the building or a narrow walkway on Front Street. This space offers water fountains, landscaping, and art."}},{"type":"Feature","geometry":{"type":"Point","coordinates":[-122.39372,37.793]},"properties":{"name":"1 Market St","type":"Privately Owned Public Open Space","address":"1 Market St","description":"Plaza located on Mission Street along the rear of the building. Some planters with benches."}},{"type":"Feature","geometry":{"type":"Point","coordinates":[-122.40652,37.78473]},"properties":{"name":"Westfield Sky Terrace (Wesfield Center Mall)","type":"Privately Owned Public Open Space","address":"845 Market St","description":"This extensive 9th floor rooftop space looks onto the dome of the mall and has views westward and sunlight. It does not have direct food service, but food may be found in the food court below in the mall."}},{"type":"Feature","geometry":{"type":"Point","coordinates":[-122.3977907,37.79175429]},"properties":{"name":"333 Market St","type":"Privately Owned Public Open Space","address":"333 Market St","description":"Open plaza with minimal seating on the edge of planters."}},{"type":"Feature","geometry":{"type":"Point","coordinates":[-122.39721,37.78618]},"properties":{"name":"235 Second St","type":"Privately Owned Public Open Space","address":"235 Second St","description":"This plaza is located on the corner of 2nd St. and Clementina St. It features several types of seating, served by a cafe."}},{"type":"Feature","geometry":{"type":"Point","coordinates":[-122.394112,37.79142819]},"properties":{"name":"135 Main St","type":"Privately Owned Public Open Space","address":"135 Main St","description":"Interior lobby with seating open business hours only."}},{"type":"Feature","geometry":{"type":"Point","coordinates":[-122.39305,37.79107]},"properties":{"name":"120 Howard St","type":"Privately Owned Public Open Space","address":"120 Howard St","description":"This space features plants along the entirety of the snippet and is served by an espresso cart."}},{"type":"Feature","geometry":{"type":"Point","coordinates":[-122.3951609,37.79096222]},"properties":{"name":"201 Mission St","type":"Privately Owned Public Open Space","address":"201 Mission St","description":"Initially hidden from street view there is seating along the building setback area to the right as you walk toward the door."}},{"type":"Feature","geometry":{"type":"Point","coordinates":[-122.4039511,37.7924598]},"properties":{"name":"555 California St","type":"Privately Owned Public Open Space","address":"555 California St","description":""}}]}